{"name":"Hannover restaurants","url":"http://overpass-turbo.eu/s/8ff"}
__DATASET_END__
[{"name":"Restaurante Fellini","address":"Voßstraße 42","town":"Hannover","latitude":52.3895107,"longitude":9.7432761,"dataset":"Hannover restaurants"},{"name":"Azurro","address":"Voßstraße 51","town":"Hannover","latitude":52.3908434,"longitude":9.7439716,"dataset":"Hannover restaurants"},{"name":"Pier 51","address":"Rudolf-von-Bennigsen-Ufer 51","town":"Hannover","latitude":52.3540725,"longitude":9.7457039,"dataset":"Hannover restaurants"},{"name":"Mi Pueblito","address":"Wunstorfer Straße 40","town":"Hannover","latitude":52.3769037,"longitude":9.6912686,"dataset":"Hannover restaurants"},{"name":"La Contessa","address":"Bandelstraße 2","town":"Hannover","latitude":52.3604344,"longitude":9.7506112,"dataset":"Hannover restaurants"},{"name":"Lasall","address":"Sallstraße 79","town":"Hannover","latitude":52.3618772,"longitude":9.7595991,"dataset":"Hannover restaurants"},{"name":"Fischers","address":"Limmerstraße 49","town":"Hannover","latitude":52.373439,"longitude":9.707167,"dataset":"Hannover restaurants"},{"name":"Brela","address":"Misburger Straße 88","town":"Hannover","latitude":52.3798572,"longitude":9.8126254,"dataset":"Hannover restaurants"},{"name":"Gingko","address":"Misburger Straße 81","town":"Hannover","latitude":52.379852,"longitude":9.8105957,"dataset":"Hannover restaurants"},{"name":"TRIO Ristorantino Eiscafe und Bar","address":"Misburger Straße 83","town":"Hannover","latitude":52.3798766,"longitude":9.8111347,"dataset":"Hannover restaurants"},{"name":"Outbax Spirit","address":"Groß-Buchholzer Kirchweg 68","town":"Hannover","latitude":52.4013577,"longitude":9.80295,"dataset":"Hannover restaurants"},{"name":"Pizzeria Taormina","address":"Kirchröder Straße 95","town":"Hannover","latitude":52.3721822,"longitude":9.7885122,"dataset":"Hannover restaurants"},{"name":"Bei Edgar","address":"Kirchröder Straße 101","town":"Hannover","latitude":52.3723597,"longitude":9.7865895,"dataset":"Hannover restaurants"},{"name":"Excalibur","address":"Bemeroder Rathausplatz 15","town":"Hannover","latitude":52.3464528,"longitude":9.8277372,"dataset":"Hannover restaurants"},{"name":"Artemis","address":"Fischerhof 6","town":"Hannover","latitude":52.354922,"longitude":9.719904,"dataset":"Hannover restaurants"},{"name":"Da Vinci","address":"Hildesheimer Straße 228","town":"Hannover","latitude":52.3414945,"longitude":9.7652418,"dataset":"Hannover restaurants"},{"name":"Treibhaus","address":"Ferdinand-Wallbrecht-Straße 14","town":"Hannover","latitude":52.3904375,"longitude":9.7489848,"dataset":"Hannover restaurants"},{"name":"Milou","address":"Moltkeplatz 11","town":"Hannover","latitude":52.3931501,"longitude":9.7457327,"dataset":"Hannover restaurants"},{"name":"Sultan Palace","address":"Schaumburgstraße 3","town":"Hannover","latitude":52.3944093,"longitude":9.6936831,"dataset":"Hannover restaurants"},{"name":"EL Dorado","address":"Haltenhoffstraße 170","town":"Hannover","latitude":52.3967243,"longitude":9.6909898,"dataset":"Hannover restaurants"},{"name":"Bahnhof Leinhausen","address":"Herrenhäuser Straße 126","town":"Hannover","latitude":52.3965225,"longitude":9.6772218,"dataset":"Hannover restaurants"},{"name":"Montelliana","address":"Wülfeler Straße 77","town":"Hannover","latitude":52.3378814,"longitude":9.8142365,"dataset":"Hannover restaurants"},{"name":"Öz Antalya Kebap","address":"Ricklinger Stadtweg 38","town":"Hannover","latitude":52.3465894,"longitude":9.7243568,"dataset":"Hannover restaurants"},{"name":"Salz & Pfeffer","address":"Steckerstraße 1","town":"Hannover","latitude":52.3432272,"longitude":9.7254894,"dataset":"Hannover restaurants"},{"name":"Högers 1910","address":"Oesterleystraße 6","town":"Hannover","latitude":52.362496,"longitude":9.7540894,"dataset":"Hannover restaurants"},{"name":"Zum Fuchsbau","address":"Albert-Niemann-Straße 15","town":"Hannover","latitude":52.3620913,"longitude":9.7562965,"dataset":"Hannover restaurants"},{"name":"Tina II","address":"Schierholzstraße 71","town":"Hannover","latitude":52.39997,"longitude":9.8251095,"dataset":"Hannover restaurants"},{"name":"Kleines Museum","address":"Grotestraße 10","town":"Hannover","latitude":52.3723322,"longitude":9.7074453,"dataset":"Hannover restaurants"},{"name":"Himalaya","address":"Postkamp 18","town":"Hannover","latitude":52.3803576,"longitude":9.7288034,"dataset":"Hannover restaurants"},{"name":"Margo","address":"Otto-Brenner-Straße 22","town":"Hannover","latitude":52.3776465,"longitude":9.7269308,"dataset":"Hannover restaurants"},{"name":"China 2000","address":"Königsworther Straße 22","town":"Hannover","latitude":52.3750027,"longitude":9.7196189,"dataset":"Hannover restaurants"},{"name":"Coimbra","address":"Charlottenstraße 88","town":"Hannover","latitude":52.3574356,"longitude":9.7183753,"dataset":"Hannover restaurants"},{"name":"Masa","address":"Georgstraße 50a","town":"Hannover","latitude":52.3715156,"longitude":9.7399777,"dataset":"Hannover restaurants"},{"name":"Pfannkuchenhaus","address":"Calenberger Straße 27","town":"Hannover","latitude":52.3699991,"longitude":9.7270067,"dataset":"Hannover restaurants"},{"name":"Hong Kong City","address":"Calenberger Straße 28","town":"Hannover","latitude":52.3700697,"longitude":9.7257921,"dataset":"Hannover restaurants"},{"name":"Plitvice Grill","address":"Wunstorfer Landstraße 52","town":"Hannover","latitude":52.3846796,"longitude":9.6634985,"dataset":"Hannover restaurants"},{"name":"Enchilada","address":"Knochenhauerstraße 36","town":"Hannover","latitude":52.3722754,"longitude":9.7336811,"dataset":"Hannover restaurants"},{"name":"Block House","address":"Ständehausstraße 4","town":"Hannover","latitude":52.3732845,"longitude":9.7387925,"dataset":"Hannover restaurants"},{"name":"Bavarium","address":"Windmühlenstraße 6","town":"Hannover","latitude":52.3720308,"longitude":9.7395273,"dataset":"Hannover restaurants"},{"name":"Al-Dar","address":"Königstraße 3","town":"Hannover","latitude":52.3751896,"longitude":9.7468509,"dataset":"Hannover restaurants"},{"name":"Paulaner am Thielenplatz","address":"Prinzenstraße 1","town":"Hannover","latitude":52.3741293,"longitude":9.7441069,"dataset":"Hannover restaurants"},{"name":"Arc en ciel","address":"Königstraße 55","town":"Hannover","latitude":52.3753993,"longitude":9.746401,"dataset":"Hannover restaurants"},{"name":"Lindenblatt","address":"Limmerstraße 20","town":"Hannover","latitude":52.3725303,"longitude":9.7103676,"dataset":"Hannover restaurants"},{"name":"Olea","address":"Seelhorststraße 44","town":"Hannover","latitude":52.3777031,"longitude":9.7606456,"dataset":"Hannover restaurants"},{"name":"Kouzina Greggo","address":"Berckhusenstraße 31","town":"Hannover","latitude":52.3743883,"longitude":9.7909816,"dataset":"Hannover restaurants"},{"name":"Hotel & Gastronomie Bischofshol","address":"Bemeroder Straße 2","town":"Hannover","latitude":52.3595268,"longitude":9.7857578,"dataset":"Hannover restaurants"},{"name":"Le Arcate","address":"Kramerstraße 4","town":"Hannover","latitude":52.3717256,"longitude":9.7336476,"dataset":"Hannover restaurants"},{"name":"O'Atlantico","address":"Kötnerholzweg 6","town":"Hannover","latitude":52.3710433,"longitude":9.7066093,"dataset":"Hannover restaurants"},{"name":"Palladion","address":"Winkelstraße 1","town":"Hannover","latitude":52.3599517,"longitude":9.8554478,"dataset":"Hannover restaurants"},{"name":"Cafe & Bar Celona","address":"Lister Meile 15","town":"Hannover","latitude":52.3810034,"longitude":9.7446639,"dataset":"Hannover restaurants"},{"name":"Meiers Lebenslust","address":"Osterstraße 64","town":"Hannover","latitude":52.3685817,"longitude":9.7404303,"dataset":"Hannover restaurants"},{"name":"Kochschule Jochmann","address":"Wittekamp 2","town":"Hannover","latitude":52.3940391,"longitude":9.7598829,"dataset":"Hannover restaurants"},{"name":"Ouzeri","address":"Hildesheimer Straße 335-337","town":"Hannover","latitude":52.3313874,"longitude":9.7749245,"dataset":"Hannover restaurants"},{"name":"\"neuer Name\"","address":"Fiedelerstraße 24","town":"Hannover","latitude":52.339236,"longitude":9.7637447,"dataset":"Hannover restaurants"},{"name":"El Greco","address":"Lehrter Straße 59","town":"Hannover","latitude":52.358967,"longitude":9.8568378,"dataset":"Hannover restaurants"},{"name":"Singapur","address":"Haltenhoffstraße 191","town":"Hannover","latitude":52.3961418,"longitude":9.6885603,"dataset":"Hannover restaurants"},{"name":"Santorini","address":"Davenstedter Markt 16B","town":"Hannover","latitude":52.3639219,"longitude":9.6744662,"dataset":"Hannover restaurants"},{"name":"Bistro Da Toni","address":"Seidelstraße 8","town":"Hannover","latitude":52.3905123,"longitude":9.7494877,"dataset":"Hannover restaurants"},{"name":"Stromboli","address":"Rühmkorffstraße 1","town":"Hannover","latitude":52.3905493,"longitude":9.7535805,"dataset":"Hannover restaurants"},{"name":"Reimanns Eck","address":"Lister Meile 26","town":"Hannover","latitude":52.3823273,"longitude":9.7452919,"dataset":"Hannover restaurants"},{"name":"Beckmann's Restaurant & Weinhaus","address":"Calenberger Straße 12","town":"Hannover","latitude":52.3703841,"longitude":9.7277842,"dataset":"Hannover restaurants"},{"name":"Son Ha","address":"Schwarzer Bär 5","town":"Hannover","latitude":52.3677437,"longitude":9.7201009,"dataset":"Hannover restaurants"},{"name":"Milazzo","address":"Kleestraße 6","town":"Hannover","latitude":52.3734871,"longitude":9.7829044,"dataset":"Hannover restaurants"},{"name":"Restaurant Cafe bell’ ARTE","address":"Kurt-Schwitters-Platz 1","town":"Hannover","latitude":52.3628397,"longitude":9.7398564,"dataset":"Hannover restaurants"},{"name":"mephisto","address":"Anderter Straße 16 - 18","town":"Hannover","latitude":52.388693,"longitude":9.8559044,"dataset":"Hannover restaurants"},{"name":"Asia Cuisine","address":"Anderter Straße 59","town":"Hannover","latitude":52.3842559,"longitude":9.8608691,"dataset":"Hannover restaurants"},{"name":"Alexander","address":"Prinzenstraße 10","town":"Hannover","latitude":52.3733481,"longitude":9.7446238,"dataset":"Hannover restaurants"},{"name":"Die Insel","address":"Rudolf-von-Bennigsen-Ufer 81","town":"Hannover","latitude":52.3434277,"longitude":9.7548506,"dataset":"Hannover restaurants"},{"name":"ILION","address":"Wredestraße 1","town":"Hannover","latitude":52.36087,"longitude":9.7629774,"dataset":"Hannover restaurants"},{"name":"Osteria Italiana","address":"Geibelplatz 1","town":"Hannover","latitude":52.3627699,"longitude":9.7618627,"dataset":"Hannover restaurants"},{"name":"Zwölf Apostel","address":"Pelikanplatz 2-4","town":"Hannover","latitude":52.3981138,"longitude":9.7705643,"dataset":"Hannover restaurants"},{"name":"Bistro da Pino","address":"Robertstraße 7","town":"Hannover","latitude":52.3890745,"longitude":9.7423101,"dataset":"Hannover restaurants"},{"name":"Vater & Sohn","address":"Warmbüchenstraße 30","town":"Hannover","latitude":52.3727441,"longitude":9.749304,"dataset":"Hannover restaurants"},{"name":"Carrots & Coffee","address":"Wedekindplatz 1","town":"Hannover","latitude":52.3855355,"longitude":9.7492935,"dataset":"Hannover restaurants"},{"name":"Taj Mahal","address":"Hinüberstraße 21","town":"Hannover","latitude":52.3746802,"longitude":9.7484058,"dataset":"Hannover restaurants"},{"name":"Sagir - Indisches Restaurant","address":"Sallstraße 17","town":"Hannover","latitude":52.3681363,"longitude":9.7546732,"dataset":"Hannover restaurants"},{"name":"Kaiser's Wok","address":"Lavesstraße 11a","town":"Hannover","latitude":52.3733969,"longitude":9.7485974,"dataset":"Hannover restaurants"},{"name":"Shanghai Town","address":"Auf der Papenburg 20","town":"Hannover","latitude":52.350082,"longitude":9.7237927,"dataset":"Hannover restaurants"},{"name":"Amalthia","address":"Krumme Straße 7","town":"Hannover","latitude":52.3631581,"longitude":9.8572259,"dataset":"Hannover restaurants"},{"name":"Costas Greek Taverna","address":"Waldstraße 13","town":"Hannover","latitude":52.3927876,"longitude":9.7507485,"dataset":"Hannover restaurants"},{"name":"Mama Tapas Factory","address":"Alemannstraße 11","town":"Hannover","latitude":52.3918216,"longitude":9.7323231,"dataset":"Hannover restaurants"},{"name":"Unter den Linden","address":"Göttinger Chaussee 175","town":"Hannover","latitude":52.3374897,"longitude":9.7173282,"dataset":"Hannover restaurants"},{"name":"o-xenos","address":"Ricklinger Stadtweg 98","town":"Hannover","latitude":52.3519219,"longitude":9.7226474,"dataset":"Hannover restaurants"},{"name":"Café Konrad","address":"Knochenhauerstraße 34","town":"Hannover","latitude":52.3724573,"longitude":9.7335565,"dataset":"Hannover restaurants"},{"name":"New May Flower","address":"Kirchröder Straße 77","town":"Hannover","latitude":52.3718199,"longitude":9.792595,"dataset":"Hannover restaurants"},{"name":"Thai-Restaurant Phuket","address":"Stadtstraße 2","town":"Hannover","latitude":52.3707406,"longitude":9.7575855,"dataset":"Hannover restaurants"},{"name":"El Solin","address":"Osterstraße 3","town":"Hannover","latitude":52.3735396,"longitude":9.7351001,"dataset":"Hannover restaurants"},{"name":"Brasserie im GHotel","address":"Lathusenstraße 15","town":"Hannover","latitude":52.3792818,"longitude":9.7955503,"dataset":"Hannover restaurants"},{"name":"Aioli","address":"Ostergrube 1","town":"Hannover","latitude":52.3612984,"longitude":9.8589762,"dataset":"Hannover restaurants"},{"name":"Alter Bahnhof Anderten","address":"An der Bahn 2","town":"Hannover","latitude":52.368854,"longitude":9.861153,"dataset":"Hannover restaurants"},{"name":"Gaststätte Zum Treffpunkt","address":"Am Tiergarten 5","town":"Hannover","latitude":52.3631581,"longitude":9.855797,"dataset":"Hannover restaurants"},{"name":"Fernost","address":"Deisterstraße 28","town":"Hannover","latitude":52.3658714,"longitude":9.7189924,"dataset":"Hannover restaurants"},{"name":"Gottfrieds","address":"Theodor-Heuss-Platz 6","town":"Hannover","latitude":52.3781663,"longitude":9.7723214,"dataset":"Hannover restaurants"},{"name":"Vegetarisches Restaurant Hiller","address":"Blumenstraße 3","town":"Hannover","latitude":52.37305,"longitude":9.748802,"dataset":"Hannover restaurants"},{"name":"Eliniko","address":"Marienstraße 104","town":"Hannover","latitude":52.3701128,"longitude":9.758492,"dataset":"Hannover restaurants"},{"name":"Zorbas","address":"Friedenauer Straße 45","town":"Hannover","latitude":52.4148516,"longitude":9.7150736,"dataset":"Hannover restaurants"},{"name":"Ying Ying","address":"Hartungstraße 2","town":"Hannover","latitude":52.4142967,"longitude":9.7032732,"dataset":"Hannover restaurants"},{"name":"Eiscafé Pizzeria Chiara","address":"Scheidestraße 24","town":"Hannover","latitude":52.3729961,"longitude":9.7869031,"dataset":"Hannover restaurants"},{"name":"Rossini Degustazione","address":"Ferdinandstraße 5","town":"Hannover","latitude":52.3761245,"longitude":9.7469586,"dataset":"Hannover restaurants"},{"name":"Tomo Sushi","address":"Volgersweg 18","town":"Hannover","latitude":52.3788921,"longitude":9.7503089,"dataset":"Hannover restaurants"},{"name":"Rib Shack","address":"Göttinger Chaussee 277","town":"Hannover","latitude":52.3319974,"longitude":9.7184219,"dataset":"Hannover restaurants"},{"name":"La Casita","address":"Hildesheimer Straße 7","town":"Hannover","latitude":52.3681605,"longitude":9.7443647,"dataset":"Hannover restaurants"},{"name":"Tina's Grill-Restaurant","address":"Hildesheimer Straße 92","town":"Hannover","latitude":52.3594,"longitude":9.7507809,"dataset":"Hannover restaurants"},{"name":"Hallo Pizza","address":"Hildesheimer Straße 223","town":"Hannover","latitude":52.3422041,"longitude":9.7656092,"dataset":"Hannover restaurants"},{"name":"La Piazza","address":"Hildesheimer Straße 318","town":"Hannover","latitude":52.3325085,"longitude":9.773114,"dataset":"Hannover restaurants"},{"name":"Joey`s Pizza Service","address":"Hildesheimer Straße 377","town":"Hannover","latitude":52.3280711,"longitude":9.7778844,"dataset":"Hannover restaurants"},{"name":"Gilde Brauhaus","address":"Heinrich-Heine-Platz 1","town":"Hannover","latitude":52.3556617,"longitude":9.7547027,"dataset":"Hannover restaurants"},{"name":"Asia Wok","address":"Hildesheimer Straße 111","town":"Hannover","latitude":52.3564826,"longitude":9.7535797,"dataset":"Hannover restaurants"},{"name":"India Haus","address":"Hildesheimer Straße 445","town":"Hannover","latitude":52.322136,"longitude":9.7844069,"dataset":"Hannover restaurants"},{"name":"Ding Feng","address":"Hildesheimer Straße 397a","town":"Hannover","latitude":52.3270529,"longitude":9.781481,"dataset":"Hannover restaurants"},{"name":"TAI PAI","address":"Hildesheimer Straße 73","town":"Hannover","latitude":52.3613001,"longitude":9.7499608,"dataset":"Hannover restaurants"},{"name":"Pizzeria - Stehcafé La Pasta","address":"Hildesheimer Straße 258","town":"Hannover","latitude":52.3385803,"longitude":9.7678493,"dataset":"Hannover restaurants"},{"name":"Toscanini","address":"Hildesheimer Straße 67","town":"Hannover","latitude":52.3617013,"longitude":9.7498287,"dataset":"Hannover restaurants"},{"name":"Pizzeria - La Pasta","address":"Hildesheimer Straße 246","town":"Hannover","latitude":52.339715,"longitude":9.766804,"dataset":"Hannover restaurants"},{"name":"Enzo's Bringdienst","address":"Hildesheimer Straße 383","town":"Hannover","latitude":52.327884,"longitude":9.7786833,"dataset":"Hannover restaurants"},{"name":"Restaurant Kreta","address":"Hildesheimer Straße 236","town":"Hannover","latitude":52.3408865,"longitude":9.7657487,"dataset":"Hannover restaurants"},{"name":"Pizza Express","address":"Hildesheimer Straße 390","town":"Hannover","latitude":52.3273833,"longitude":9.7799167,"dataset":"Hannover restaurants"},{"name":"Donau Grill","address":"Hildesheimer Straße 359","town":"Hannover","latitude":52.3291762,"longitude":9.7766144,"dataset":"Hannover restaurants"},{"name":"Gastwirtschaft Wichmann","address":"Hildesheimer Straße 230","town":"Hannover","latitude":52.3412797,"longitude":9.7652874,"dataset":"Hannover restaurants"},{"name":"Pizza Nizza","address":"Hildesheimer Straße 124","town":"Hannover","latitude":52.3559982,"longitude":9.7534346,"dataset":"Hannover restaurants"},{"name":"Tante Minchen's gute Stube","address":"Hildesheimer Straße 135","town":"Hannover","latitude":52.3537204,"longitude":9.7556957,"dataset":"Hannover restaurants"},{"name":"Thessalia","address":"Hildesheimer Straße 248","town":"Hannover","latitude":52.3394397,"longitude":9.7670276,"dataset":"Hannover restaurants"},{"name":"Brauereigaststätte Wienecke XI. Hannover","address":"Hildesheimer Straße 380","town":"Hannover","latitude":52.3275682,"longitude":9.7779099,"dataset":"Hannover restaurants"},{"name":"Tinas Grill","address":"Hildesheimer Straße 383","town":"Hannover","latitude":52.3278973,"longitude":9.7785533,"dataset":"Hannover restaurants"},{"name":"Wirtshaus zum Hasseröder","address":"Hildesheimer Straße 97","town":"Hannover","latitude":52.3580713,"longitude":9.7524115,"dataset":"Hannover restaurants"},{"name":"Restaurant Delphi","address":"Hildesheimer Straße 264","town":"Hannover","latitude":52.3381512,"longitude":9.7681608,"dataset":"Hannover restaurants"},{"name":"Exzellent","address":"Fiedelerstraße 4","town":"Hannover","latitude":52.3421083,"longitude":9.7642692,"dataset":"Hannover restaurants"},{"name":"Camp Griech. Restaurant","address":"Hildesheimer Straße 117","town":"Hannover","latitude":52.3549835,"longitude":9.7547861,"dataset":"Hannover restaurants"},{"name":"Abendmahl","address":"Hildesheimer Straße 37","town":"Hannover","latitude":52.364283,"longitude":9.7473667,"dataset":"Hannover restaurants"},{"name":"Wirtshaus Klock 9","address":"Schlägerstraße 1","town":"Hannover","latitude":52.3655185,"longitude":9.7470367,"dataset":"Hannover restaurants"},{"name":"IssFein","address":"Hildesheimer Straße 46","town":"Hannover","latitude":52.3633971,"longitude":9.7477544,"dataset":"Hannover restaurants"},{"name":"Ole Deele - bei Marion und Wolfgang","address":"Hildesheimer Straße 332","town":"Hannover","latitude":52.3314121,"longitude":9.774077,"dataset":"Hannover restaurants"},{"name":"Pizzeria Maria","address":"Hildesheimer Straße 352","town":"Hannover","latitude":52.329686,"longitude":9.775506,"dataset":"Hannover restaurants"},{"name":"Pizza Gentili","address":"Hildesheimer Straße 332","town":"Hannover","latitude":52.3312891,"longitude":9.7741547,"dataset":"Hannover restaurants"},{"name":"Besitos Hannover","address":"Goseriede 4","town":"Hannover","latitude":52.377301,"longitude":9.7333516,"dataset":"Hannover restaurants"},{"name":"Jutta Pauls Café & Restaurant","address":"Karl-Thiele-Weg 21","town":"Hannover","latitude":52.3539434,"longitude":9.7398744,"dataset":"Hannover restaurants"},{"name":"Ruenthai","address":"Lavesstraße 79","town":"Hannover","latitude":52.3742051,"longitude":9.7458724,"dataset":"Hannover restaurants"},{"name":"La Conchiglia","address":"Klein-Buchholzer Kirchweg 1","town":"Hannover","latitude":52.4126854,"longitude":9.7987292,"dataset":"Hannover restaurants"},{"name":"Istanbul","address":"Thie 1","town":"Hannover","latitude":52.3383454,"longitude":9.8342386,"dataset":"Hannover restaurants"},{"name":"El Pais","address":"Friesenstraße 50","town":"Hannover","latitude":52.3816317,"longitude":9.748205,"dataset":"Hannover restaurants"},{"name":"Altdeutsche küche","address":"Köbelingerstraße 1","town":"Hannover","latitude":52.3708974,"longitude":9.7358433,"dataset":"Hannover restaurants"},{"name":"Bistro Amadeus","address":"Liebigstraße 8","town":"Hannover","latitude":52.3927395,"longitude":9.755881,"dataset":"Hannover restaurants"},{"name":"Bei Christos","address":"Döhrbruch 20","town":"Hannover","latitude":52.3512864,"longitude":9.8210517,"dataset":"Hannover restaurants"},{"name":"Restaurant Achilles","address":"Höfestraße 38 A","town":"Hannover","latitude":52.3960843,"longitude":9.7543741,"dataset":"Hannover restaurants"},{"name":"Brunnenhof","address":"Ernst-August-Platz 4","town":"Hannover","latitude":52.3762978,"longitude":9.7390646,"dataset":"Hannover restaurants"},{"name":"RSV Restaurant","address":"Elbestraße 39","town":"Hannover","latitude":52.3999381,"longitude":9.6791126,"dataset":"Hannover restaurants"},{"name":"Waldgasthaus Entenfang","address":"Eilersweg 1","town":"Hannover","latitude":52.4062004,"longitude":9.6809596,"dataset":"Hannover restaurants"},{"name":"Samaria II","address":"Bornumer Straße 160","town":"Hannover","latitude":52.3502164,"longitude":9.6891483,"dataset":"Hannover restaurants"},{"name":"Sportheim","address":"Ossietzkyring 48","town":"Hannover","latitude":52.3383037,"longitude":9.6860852,"dataset":"Hannover restaurants"},{"name":"Zauberlehrling","address":"Geibelstraße 77","town":"Hannover","latitude":52.3584092,"longitude":9.7487894,"dataset":"Hannover restaurants"},{"name":"Elena","address":"Tillystraße 33","town":"Hannover","latitude":52.3369627,"longitude":9.7175122,"dataset":"Hannover restaurants"},{"name":"Taverne Odysseus","address":"Walderseestraße 100","town":"Hannover","latitude":52.3896794,"longitude":9.7555542,"dataset":"Hannover restaurants"},{"name":"BO-NGON","address":"Schierholzstraße 116","town":"Hannover","latitude":52.4000479,"longitude":9.8280592,"dataset":"Hannover restaurants"},{"name":"La Cantina","address":"Perlstraße 1","town":"Hannover","latitude":52.3829307,"longitude":9.7400427,"dataset":"Hannover restaurants"},{"name":"Taverne","address":"Bandelstraße 35","town":"Hannover","latitude":52.3623518,"longitude":9.757162,"dataset":"Hannover restaurants"},{"name":"Antalya","address":"Davenstedter Straße 30","town":"Hannover","latitude":52.367273,"longitude":9.7080076,"dataset":"Hannover restaurants"},{"name":"Luci della Montagna (lichtenberg)","address":"Dieckbornstraße 44","town":"Hannover","latitude":52.3685838,"longitude":9.7099275,"dataset":"Hannover restaurants"},{"name":"Mamma Raffaele","address":"Viktoriastraße 37","town":"Hannover","latitude":52.371821,"longitude":9.70857,"dataset":"Hannover restaurants"},{"name":"Trattoria Etna","address":"Limmerstraße 75","town":"Hannover","latitude":52.3745316,"longitude":9.7038907,"dataset":"Hannover restaurants"},{"name":"Block House","address":"Hildesheimer Straße 9","town":"Hannover","latitude":52.3679613,"longitude":9.7446305,"dataset":"Hannover restaurants"},{"name":"Rampoldi","address":"Berliner Allee 33","town":"Hannover","latitude":52.3747259,"longitude":9.7519648,"dataset":"Hannover restaurants"},{"name":"Bistro Da Priscilla","address":"Gehägestraße 22B","town":"Hannover","latitude":52.3949971,"longitude":9.7908896,"dataset":"Hannover restaurants"},{"name":"Bistro Marien","address":"Marienstraße 69","town":"Hannover","latitude":52.3701752,"longitude":9.7535209,"dataset":"Hannover restaurants"},{"name":"Zum Kamin","address":"Arnswaldtstraße 27","town":"Hannover","latitude":52.370522,"longitude":9.7486407,"dataset":"Hannover restaurants"},{"name":"Boca","address":"Kriegerstraße 43a","town":"Hannover","latitude":52.3874818,"longitude":9.7413354,"dataset":"Hannover restaurants"},{"name":"Zwiespalt","address":"Egestorffstraße 10","town":"Hannover","latitude":52.3670124,"longitude":9.7123986,"dataset":"Hannover restaurants"},{"name":"Weinstube Leonardo Ristorante","address":"Sophienstraße 6","town":"Hannover","latitude":52.3724881,"longitude":9.7437547,"dataset":"Hannover restaurants"},{"name":"Pizzeria Napoli","address":"Deisterstraße 40","town":"Hannover","latitude":52.36504,"longitude":9.71829,"dataset":"Hannover restaurants"},{"name":"Mediterranes Restaurant Estragon im BEST WESTERN Hotel Der Föhrenhof","address":"Kirchhorster Straße 22","town":"Hannover","latitude":52.4136505,"longitude":9.8255204,"dataset":"Hannover restaurants"},{"name":"Restaurant im Polizei-Sportverein","address":"An der Breiten Wiese 70","town":"Hannover","latitude":52.3767356,"longitude":9.8251314,"dataset":"Hannover restaurants"},{"name":"Crêperie","address":"Limmerstraße 47","town":"Hannover","latitude":52.373331,"longitude":9.707467,"dataset":"Hannover restaurants"},{"name":"Kale","address":"Mainzer Straße 6","town":"Hannover","latitude":52.3568202,"longitude":9.7690145,"dataset":"Hannover restaurants"},{"name":"Rias Baixas II","address":"Plaza de Rosalia 2","town":"Hannover","latitude":52.3610493,"longitude":9.7163151,"dataset":"Hannover restaurants"},{"name":"Rias Baixas","address":"Deisterstraße 77","town":"Hannover","latitude":52.3624467,"longitude":9.7162748,"dataset":"Hannover restaurants"},{"name":"Aresto","address":"Klostergang 2","town":"Hannover","latitude":52.3712548,"longitude":9.7316465,"dataset":"Hannover restaurants"},{"name":"Alanya","address":"Podbielskistraße 313","town":"Hannover","latitude":52.4061429,"longitude":9.7991692,"dataset":"Hannover restaurants"},{"name":"AsiaThai","address":"Hannoversche Straße 28","town":"Hannover","latitude":52.3903841,"longitude":9.8485321,"dataset":"Hannover restaurants"},{"name":"Alter Bahnhof Anderten Biergarten","address":"An der Bahn 2","town":"Hannover","latitude":52.3688298,"longitude":9.8615247,"dataset":"Hannover restaurants"},{"name":"Alssos","address":"Waldstraße 60","town":"Hannover","latitude":52.3977962,"longitude":9.8565573,"dataset":"Hannover restaurants"},{"name":"Hotel amadeus","address":"Fössestraße 83","town":"Hannover","latitude":52.3693222,"longitude":9.7034913,"dataset":"Hannover restaurants"},{"name":"Mephisto-Podbi","address":"Podbielskistraße 111","town":"Hannover","latitude":52.396148,"longitude":9.7658721,"dataset":"Hannover restaurants"},{"name":"Tesoro","address":"Marienstraße 113","town":"Hannover","latitude":52.3705114,"longitude":9.7598301,"dataset":"Hannover restaurants"},{"name":"China-Imbiss Pacific","address":"Limmerstraße 7","town":"Hannover","latitude":52.3717602,"longitude":9.7120638,"dataset":"Hannover restaurants"},{"name":"Bistro bei Jaqueline","address":"Limmerstraße 7","town":"Hannover","latitude":52.3717242,"longitude":9.7121711,"dataset":"Hannover restaurants"},{"name":"Shalimar","address":"Lange Laube 13","town":"Hannover","latitude":52.3763361,"longitude":9.7293298,"dataset":"Hannover restaurants"},{"name":"Kindai Sushi","address":"Marienstraße 54","town":"Hannover","latitude":52.3692716,"longitude":9.7513533,"dataset":"Hannover restaurants"},{"name":"Bella Italia","address":"Lemförder Straße 11","town":"Hannover","latitude":52.3665433,"longitude":9.742575,"dataset":"Hannover restaurants"},{"name":"Papa Enzos","address":"Hildesheimer Straße 46","town":"Hannover","latitude":52.3633262,"longitude":9.747805,"dataset":"Hannover restaurants"},{"name":"Koh-I-Noor Dhaba","address":"Hildesheimer Straße 85","town":"Hannover","latitude":52.3599744,"longitude":9.7509203,"dataset":"Hannover restaurants"},{"name":"Ristorante Botticelli","address":"Sutelstraße 70","town":"Hannover","latitude":52.4081041,"longitude":9.7995235,"dataset":"Hannover restaurants"},{"name":"Restaurant Leonardo","address":"Tiergartenstraße 117","town":"Hannover","latitude":52.3624158,"longitude":9.8331633,"dataset":"Hannover restaurants"},{"name":"Vietcuisine","address":"Edenstraße 34","town":"Hannover","latitude":52.3881467,"longitude":9.7484913,"dataset":"Hannover restaurants"},{"name":"Lister Krug","address":"Fraunhoferstraße 2","town":"Hannover","latitude":52.3934862,"longitude":9.7537377,"dataset":"Hannover restaurants"},{"name":"Cheers","address":"Marschnerstraße 2","town":"Hannover","latitude":52.382165,"longitude":9.7265471,"dataset":"Hannover restaurants"},{"name":"Ocean City","address":"Luisenstraße 5","town":"Hannover","latitude":52.3746488,"longitude":9.7425616,"dataset":"Hannover restaurants"},{"name":"Pizza Freund","address":"Leipziger Straße 116","town":"Hannover","latitude":52.41738,"longitude":9.7603279,"dataset":"Hannover restaurants"},{"name":"Kilimanjaro","address":"Knochenhauerstraße 23","town":"Hannover","latitude":52.3727794,"longitude":9.7336319,"dataset":"Hannover restaurants"},{"name":"Vienna","address":"Ballhofplatz 1","town":"Hannover","latitude":52.3724571,"longitude":9.7320743,"dataset":"Hannover restaurants"},{"name":"EICHHORN'S BIO-KÜCHE","address":"Stolzestraße 60","town":"Hannover","latitude":52.3647891,"longitude":9.7556124,"dataset":"Hannover restaurants"},{"name":"Titus","address":"Wiehbergstraße 98","town":"Hannover","latitude":52.3351404,"longitude":9.7631088,"dataset":"Hannover restaurants"},{"name":"Francesco Natale","address":"Hornemannweg 11","town":"Hannover","latitude":52.3876967,"longitude":9.7216112,"dataset":"Hannover restaurants"},{"name":"Buongiorno","address":"Sallstraße 73","town":"Hannover","latitude":52.3623559,"longitude":9.7589488,"dataset":"Hannover restaurants"},{"name":"Adesso","address":"Lister Straße 2","town":"Hannover","latitude":52.3892223,"longitude":9.750523,"dataset":"Hannover restaurants"},{"name":"Rondino's","address":"Lister Straße 9","town":"Hannover","latitude":52.3901417,"longitude":9.7522792,"dataset":"Hannover restaurants"},{"name":"Sindo","address":"Podbielskistraße 14","town":"Hannover","latitude":52.3895662,"longitude":9.7525934,"dataset":"Hannover restaurants"},{"name":"Indian Tandoori Haus","address":"Jakobistraße 6","town":"Hannover","latitude":52.3889507,"longitude":9.7494901,"dataset":"Hannover restaurants"},{"name":"Ristorante Amici miei","address":"Lister Meile 9","town":"Hannover","latitude":52.3803181,"longitude":9.7440964,"dataset":"Hannover restaurants"},{"name":"Restaurant Algarve","address":"Ricklinger Straße 83","town":"Hannover","latitude":52.3589627,"longitude":9.7199949,"dataset":"Hannover restaurants"},{"name":"Bodhi Chay","address":"Deisterstraße 20","town":"Hannover","latitude":52.366533,"longitude":9.719415,"dataset":"Hannover restaurants"},{"name":"6sinne","address":"Heiliger Straße 15 - 16","town":"Hannover","latitude":52.3745104,"longitude":9.7352634,"dataset":"Hannover restaurants"},{"name":"Gattopardo","address":"Hainhölzer Straße 1","town":"Hannover","latitude":52.3801066,"longitude":9.7310979,"dataset":"Hannover restaurants"},{"name":"Tandori","address":"Charlottenstraße 58","town":"Hannover","latitude":52.3606414,"longitude":9.7180817,"dataset":"Hannover restaurants"},{"name":"L'Osteria","address":"Vahrenwalder Straße 269","town":"Hannover","latitude":52.4157785,"longitude":9.7327124,"dataset":"Hannover restaurants"},{"name":"La Paella","address":"Lister Kirchweg 107","town":"Hannover","latitude":52.3959144,"longitude":9.7619763,"dataset":"Hannover restaurants"}]
